[
  {
    "region": "North King County",
    "locations": [
      {
        "location": "Bothell",
        "lat": 47.75996001736783,
        "lon": -122.20511403032995
      },
      {
        "location": "Kenmore",
        "lat": 47.758147960152996,
        "lon": -122.2490108398928
      },
      {
        "location": "Shoreline",
        "lat": 47.755755798136306,
        "lon": -122.34581975820825
      },
      {
        "location": "Lake Forest Park",
        "lat": 47.759969845324406,
        "lon": -122.28385514371176
      },
      {
        "location": "Woodinville",
        "lat": 47.754164017535984,
        "lon": -122.16508577483992
      }
    ]
  },
  {
    "region": "East King County",
    "locations": [
      {
        "location": "Bellevue",
        "lat": 47.596044971259225,
        "lon": -122.16212394700246
      },
      {
        "location": "Redmond",
        "lat": 47.68019006965319,
        "lon": -122.12539625541679
      },
      {
        "location": "Kirkland",
        "lat": 47.70075316634866,
        "lon": -122.19739231983289
      },
      {
        "location": "Sammamish",
        "lat": 47.60288527786535,
        "lon": -122.03684689085854
      },
      {
        "location": "Issaquah",
        "lat": 47.53699899442789,
        "lon": -122.04449288128528
      },
      {
        "location": "Beaux Arts Village",
        "lat": 47.58550331383863,
        "lon": -122.20133912344433
      },
      {
        "location": "Clyde Hill",
        "lat": 47.630335823745284,
        "lon": -122.21805405624576
      },
      {
        "location": "Hunts Point",
        "lat": 47.64435507706831,
        "lon": -122.22994262315054
      },
      {
        "location": "Medina",
        "lat": 47.626201482852906,
        "lon": -122.23500046482913
      },
      {
        "location": "Yarrow Point",
        "lat": 47.64650128103335,
        "lon": -122.21830535329767
      },
      {
        "location": "Bear Creek (unincorporated)",
        "lat": 47.66769154847472,
        "lon": -122.1255099142177
      }
    ]
  },
  {
    "region": "Snoqualmie Valley",
    "locations": [
      {
        "location": "North Bend",
        "lat": 47.4960472285173,
        "lon": -121.78870800300986
      },
      {
        "location": "Snoqualmie",
        "lat": 47.529809650347374,
        "lon": -121.8466970043762
      },
      {
        "location": "Carnation",
        "lat": 47.64612410552106,
        "lon": -121.90947217055934
      },
      {
        "location": "Duvall",
        "lat": 47.73697832370446,
        "lon": -121.9741235273971
      },
      {
        "location": "Fall City (unincorporated)",
        "lat": 47.56610107834961,
        "lon": -121.89904197814532
      }
    ]
  },
  {
    "region": "South King County",
    "locations": [
      {
        "location": "Tukwila",
        "lat": 47.47200272484551,
        "lon": -122.26696279942783
      },
      {
        "location": "Burien",
        "lat": 47.476714445527556,
        "lon": -122.33743558936949
      },
      {
        "location": "Kent",
        "lat": 47.395194408240705,
        "lon": -122.22641685597313
      },
      {
        "location": "Renton",
        "lat": 47.47796672037013,
        "lon": -122.19002788955237
      },
      {
        "location": "Auburn",
        "lat": 47.301004760050745,
        "lon": -122.22135902698902
      },
      {
        "location": "SeaTac",
        "lat": 47.443399435597534,
        "lon": -122.29630588745462
      },
      {
        "location": "Federal Way",
        "lat": 47.31151780068995,
        "lon": -122.33380616738688
      },
      {
        "location": "Pacific",
        "lat": 47.26231868065003,
        "lon": -122.25275631624963
      },
      {
        "location": "Algona",
        "lat": 47.28333362330417,
        "lon": -122.25157857595319
      },
      {
        "location": "Normandy Park",
        "lat": 47.43493806771738,
        "lon": -122.34526827187103
      },
      {
        "location": "Des Moines",
        "lat": 47.38774517753849,
        "lon": -122.31084359510565
      },
      {
        "location": "Newcastle",
        "lat": 47.529923709258455,
        "lon": -122.16220918544144
      },
      {
        "location": "Milton",
        "lat": 47.253408177008076,
        "lon": -122.3108634991719
      },
      {
        "location": "Fairwood (unincorporated)",
        "lat": 47.44793526323168,
        "lon": -122.14036678126904
      },
      {
        "location": "East Federal Way (unincorporated)",
        "lat": 47.324457195423435,
        "lon": -122.27143772382375
      }
    ]
  },
  {
    "region": "South East King County",
    "locations": [
      {
        "location": "Maple Valley",
        "lat": 47.36528863883569,
        "lon": -122.03791456727996
      },
      {
        "location": "Black Diamond",
        "lat": 47.31564408875166,
        "lon": -122.0179512352312
      },
      {
        "location": "Enumclaw",
        "lat": 47.20301752203492,
        "lon": -121.99259598666788
      },
      {
        "location": "Covington",
        "lat": 47.36698341456084,
        "lon": -122.11136743746833
      }
    ]
  },
  {
    "region": "Seattle Metro",
    "locations": [
      {
        "location": "Seattle",
        "lat": 47.61389582038561,
        "lon": -122.32831645688643
      },
      {
        "location": "Vashon-Maury Island",
        "lat": 47.41743380655348,
        "lon": -122.45585898169614
      }
    ]
  },
  {
    "region": "Urban Unincorporated",
    "locations": [
      {
        "location": "Skyway",
        "lat": 47.495050349621216,
        "lon": -122.24013995926056
      },
      {
        "location": "White Center",
        "lat": 47.50926393311086,
        "lon": -122.35072145714211
      }
    ]
  }
]
