[
  {
    "region": "North King County",
    "locations": [
      {
        "location": "Bothell",
        "lat": 47.75996,
        "lon": -122.20511
      },
      {
        "location": "Kenmore",
        "lat": 47.75815,
        "lon": -122.24901
      },
      {
        "location": "Shoreline",
        "lat": 47.75575,
        "lon": -122.34582
      },
      {
        "location": "Lake Forest Park",
        "lat": 47.75997,
        "lon": -122.28385
      },
      {
        "location": "Woodinville",
        "lat": 47.75416,
        "lon": -122.16509
      }
    ]
  },
  {
    "region": "East King County",
    "locations": [
      {
        "location": "Bellevue",
        "lat": 47.59604,
        "lon": -122.16212
      },
      {
        "location": "Redmond",
        "lat": 47.68019,
        "lon": -122.1254
      },
      {
        "location": "Kirkland",
        "lat": 47.70075,
        "lon": -122.19739
      },
      {
        "location": "Sammamish",
        "lat": 47.60288,
        "lon": -122.03685
      },
      {
        "location": "Issaquah",
        "lat": 47.53700,
        "lon": -122.04449
      },
      {
        "location": "Beaux Arts Village",
        "lat": 47.58550,
        "lon": -122.20134
      },
      {
        "location": "Clyde Hill",
        "lat": 47.63034,
        "lon": -122.21805
      },
      {
        "location": "Hunts Point",
        "lat": 47.64435,
        "lon": -122.22994
      },
      {
        "location": "Medina",
        "lat": 47.62620,
        "lon": -122.23500
      },
      {
        "location": "Yarrow Point",
        "lat": 47.64650,
        "lon": -122.21830
      },
      {
        "location": "Bear Creek (unincorporated)",
        "lat": 47.66769,
        "lon": -122.12551
      }
    ]
  },
  {
    "region": "Snoqualmie Valley",
    "locations": [
      {
        "location": "North Bend",
        "lat": 47.49605,
        "lon": -121.78871
      },
      {
        "location": "Snoqualmie",
        "lat": 47.52981,
        "lon": -121.84670
      },
      {
        "location": "Carnation",
        "lat": 47.64612,
        "lon": -121.90947
      },
      {
        "location": "Duvall",
        "lat": 47.73698,
        "lon": -121.97412
      },
      {
        "location": "Fall City (unincorporated)",
        "lat": 47.56610,
        "lon": -121.89904
      }
    ]
  },
  {
    "region": "South King County",
    "locations": [
      {
        "location": "Tukwila",
        "lat": 47.47200,
        "lon": -122.26696
      },
      {
        "location": "Burien",
        "lat": 47.47671,
        "lon": -122.33743
      },
      {
        "location": "Kent",
        "lat": 47.39519,
        "lon": -122.22642
      },
      {
        "location": "Renton",
        "lat": 47.47797,
        "lon": -122.19003
      },
      {
        "location": "Auburn",
        "lat": 47.30100,
        "lon": -122.22136
      },
      {
        "location": "SeaTac",
        "lat": 47.44340,
        "lon": -122.29631
      },
      {
        "location": "Federal Way",
        "lat": 47.31152,
        "lon": -122.33381
      },
      {
        "location": "Pacific",
        "lat": 47.26232,
        "lon": -122.25276
      },
      {
        "location": "Algona",
        "lat": 47.28334,
        "lon": -122.25158
      },
      {
        "location": "Normandy Park",
        "lat": 47.43494,
        "lon": -122.34527
      },
      {
        "location": "Des Moines",
        "lat": 47.38774,
        "lon": -122.31084
      },
      {
        "location": "Newcastle",
        "lat": 47.52992,
        "lon": -122.16221
      },
      {
        "location": "Milton",
        "lat": 47.25341,
        "lon": -122.31086
      },
      {
        "location": "Fairwood (unincorporated)",
        "lat": 47.44793,
        "lon": -122.14037
      },
      {
        "location": "East Federal Way (unincorporated)",
        "lat": 47.32446,
        "lon": -122.27144
      }
    ]
  },
  {
    "region": "South East King County",
    "locations": [
      {
        "location": "Maple Valley",
        "lat": 47.36529,
        "lon": -122.03791
      },
      {
        "location": "Black Diamond",
        "lat": 47.31564,
        "lon": -122.01795
      },
      {
        "location": "Enumclaw",
        "lat": 47.20302,
        "lon": -121.99260
      },
      {
        "location": "Covington",
        "lat": 47.36698,
        "lon": -122.11137
      }
    ]
  },
  {
    "region": "Seattle Metro",
    "locations": [
      {
        "location": "Seattle",
        "lat": 47.61390,
        "lon": -122.32832
      },
      {
        "location": "Vashon-Maury Island",
        "lat": 47.41743,
        "lon": -122.45586
      }
    ]
  },
  {
    "region": "Urban Unincorporated",
    "locations": [
      {
        "location": "Skyway",
        "lat": 47.49505,
        "lon": -122.24014
      },
      {
        "location": "White Center",
        "lat": 47.50926,
        "lon": -122.35072
      }
    ]
  }
]
